[
    {
		"name":"省人大",
        "date": "2016-03-23 08:12:30",
        "latin": "31.853287",
        "long": "117.28422"
    },
    {   "name":"中医学院",
        "date": "2016-03-23 08:13:00",
        "latin": "31.860032",
        "long": "117.267891"
    },
    {	"name":"合作化南路",
        "date": "2016-03-23 08:13:30",
        "latin": "31.836461",
        "long": "117.257971"
    },
	 {	"name":"安医二院",
        "date": "2016-03-23 08:13:30",
        "latin": "31.796465",
        "long": "117.217802"
    }
	,
	 {	"name":"翡翠路",
        "date": "2016-03-23 08:13:30",
        "latin": "31.797324",
        "long": "117.216152"
    }
	,
	 {	"name":"翡翠路习友路交口",
        "date": "2016-03-23 08:13:30",
        "latin": "31.808073",
        "long": "117.22079"
    },
	 {	"name":"继远软件园",
        "date": "2016-03-23 08:13:30",
        "latin": "31.824266",
        "long": "117.189303"
    }
]